index,endName,endLat,endLong,count,per_count
0,12 Ave & W 40 St,40.76087502,-74.00277668,31926,1
1,West St & Chambers St,40.71754834,-74.01322069,30853,1
2,1 Ave & E 68 St,40.76500525,-73.95818491,27702,0.9
3,Broadway & W 60 St,40.76915505,-73.98191841,26312,0.85
4,Pier 40 - Hudson River Park,40.72771408,-74.01129574,24769,0.8
5,Christopher St & Greenwich St,40.73291553,-74.00711384,23859,0.75
6,E 17 St & Broadway,40.73704984,-73.99009296,23036,0.75
7,Central Park S & 6 Ave,40.76590936,-73.97634151,22240,0.7
8,S 5 Pl & S 5 St,40.710451,-73.960876,21837,0.7
9,E 13 St & Avenue A,40.72966729,-73.98067966,21529,0.7
10,W 21 St & 6 Ave,40.74173969,-73.99415556,21377,0.7
11,Broadway & E 22 St,40.7403432,-73.98955109,20289,0.65
12,E 33 St & 1 Ave,40.74322681,-73.97449784,19931,0.65
13,5 Ave & E 73 St,40.77282817,-73.96685276,19625,0.65
14,Little West St & 1 Pl,40.70569254,-74.01677685,19346,0.65
15,Carmine St & 6 Ave,40.73038599,-74.00214988,19307,0.65
16,Broadway & W 25 St,40.74286877,-73.98918629,19293,0.65
17,Broadway & E 14 St,40.73454567,-73.99074142,18867,0.6
18,Central Park North & Adam Clayton Powell Blvd,40.799484,-73.955613,18859,0.6
19,FDR Drive & E 35 St,40.744219,-73.97121214,18748,0.6
20,Central Park West & W 72 St,40.77579377,-73.97620574,18660,0.6
21,Kent Ave & N 7 St,40.72036775,-73.96165073,18332,0.6
22,Grand St & Elizabeth St,40.718822,-73.99596,17644,0.6
23,Grand Army Plaza & Central Park S,40.7643971,-73.97371465,17616,0.6
24,University Pl & E 14 St,40.734814,-73.992085,17456,0.55
25,Broadway & W 56 St,40.7652654,-73.98192338,17082,0.55
26,5 Ave & E 88 St,40.78307,-73.95939,16926,0.55
27,West Drive & Prospect Park West,40.66106337,-73.97945255,16838,0.55
28,12 Ave & W 125 St,40.818299,-73.960405,16719,0.55
29,9 Ave & W 22 St,40.7454973,-74.00197139,16695,0.55
30,2 Ave & E 31 St,40.74290902,-73.97706058,16689,0.55
31,8 Ave & W 52 St,40.76370739,-73.9851615,16634,0.55
32,Central Park West & W 68 St,40.7734066,-73.97782542,16523,0.55
33,11 Ave & W 41 St,40.76030096,-73.99884222,16505,0.55
34,Central Park West & W 85 St,40.78472675,-73.96961715,16282,0.55
35,W 24 St & 7 Ave,40.74487634,-73.99529885,16271,0.55
36,W 4 St & 7 Ave S,40.73401143,-74.00293877,16262,0.55
37,1 Ave & E 62 St,40.7612274,-73.96094022,15827,0.5
38,E 39 St & 2 Ave,40.74780373,-73.9734419,15728,0.5
39,1 Ave & E 78 St,40.77140426,-73.9535166,15685,0.5
40,Pershing Square North,40.751873,-73.977706,15654,0.5
41,Clinton St & Grand St,40.71559509,-73.9870295,15635,0.5
42,E 20 St & 2 Ave,40.73587678,-73.98205027,15512,0.5
43,Centre St & Chambers St,40.71273266,-74.0046073,15444,0.5
44,E 25 St & 2 Ave,40.73912601,-73.97973776,15340,0.5
45,E 10 St & Avenue A,40.72740794,-73.98142006,15253,0.5
46,W 20 St & 11 Ave,40.746745,-74.007756,15149,0.5
47,6 Ave & W 33 St,40.74901271,-73.98848395,15144,0.5
48,8 Ave & W 33 St,40.751551,-73.993934,15096,0.5
49,W 22 St & 10 Ave,40.74691959,-74.00451887,14985,0.5
50,W 15 St & 7 Ave,40.73935542,-73.99931783,14931,0.5
51,Greenwich Ave & 8 Ave,40.73901691,-74.00263761,14855,0.5
52,Lafayette St & E 8 St,40.73020661,-73.99102628,14810,0.5
53,7 Ave & Central Park South,40.76674056,-73.97906899,14780,0.5
54,E 11 St & 2 Ave,40.73047309,-73.98672378,14689,0.5
55,W 52 St & 11 Ave,40.76727216,-73.99392888,14687,0.5
56,West St & Liberty St,40.711444,-74.014847,14496,0.5
57,E 31 St & 3 Ave,40.74394314,-73.97966069,14487,0.5
58,MacDougal St & Prince St,40.72710258,-74.00297088,14251,0.45
59,Grand Army Plaza & Plaza St West,40.6729679,-73.97087984,14232,0.45
60,Queens Plaza North & Crescent St,40.75110165,-73.94073717,14160,0.45
61,W 38 St & 8 Ave,40.75466591,-73.99138152,14137,0.45
62,Cleveland Pl & Spring St,40.72210379,-73.99724901,14099,0.45
63,Old Fulton St,40.70277159,-73.99383605,14043,0.45
64,S 4 St & Wythe Ave,40.71285887,-73.96590294,13942,0.45
65,Amsterdam Ave & W 73 St,40.77966809,-73.98093045,13904,0.45
66,West Thames St,40.70834698,-74.01713445,13815,0.45
67,8 Ave & W 31 St,40.75058535,-73.99468482,13794,0.45
68,9 Ave & W 45 St,40.76019252,-73.9912551,13780,0.45
69,Columbus Ave & W 72 St,40.7770575,-73.97898475,13738,0.45
70,E 23 St & 1 Ave,40.736502,-73.97809472,13582,0.45
71,E 7 St & Avenue A,40.72621788,-73.98379855,13444,0.45
72,E 11 St & 1 Ave,40.72953837,-73.98426726,13208,0.45
73,W 22 St & 8 Ave,40.74475148,-73.99915362,13174,0.45
74,E 27 St & 1 Ave,40.739445,-73.976806,13076,0.45
75,Norfolk St & Broome St,40.7172274,-73.98802084,13016,0.45
76,W 47 St & 10 Ave,40.76269882,-73.99301222,12982,0.45
77,6 Ave & Broome St,40.72430832,-74.00473036,12899,0.45
78,Lenox Ave & W 111 St,40.7987859,-73.9523,12852,0.45
79,E 15 St & 3 Ave,40.734232,-73.986923,12833,0.45
80,Riverside Dr & W 72 St,40.78057799,-73.98562431,12795,0.45
81,W 26 St & 8 Ave,40.74734825,-73.99723551,12758,0.4
82,W 37 St & 10 Ave,40.75660359,-73.9979009,12733,0.4
83,W 43 St & 10 Ave,40.76009437,-73.99461843,12715,0.4
84,Mott St & Prince St,40.72317958,-73.99480012,12649,0.4
85,Forsyth St & Canal St,40.7158155,-73.99422366,12645,0.4
86,Sullivan St & Washington Sq,40.73047747,-73.99906065,12472,0.4
87,W 41 St & 8 Ave,40.75640548,-73.9900262,12461,0.4
88,Barrow St & Hudson St,40.73172428,-74.00674436,12405,0.4
89,Central Park W & W 96 St,40.79127,-73.964839,12370,0.4
90,Canal St & Rutgers St,40.71427487,-73.98990025,12247,0.4
91,W 17 St & 8 Ave,40.74177603,-74.00149746,12208,0.4
92,E 6 St & Avenue D,40.72228087,-73.97668709,12066,0.4
93,Vesey Pl & River Terrace,40.7153379,-74.01658354,12003,0.4
94,University Pl & E 8 St,40.73143724,-73.99490342,11960,0.4
95,E 85 St & 3 Ave,40.77801203,-73.95407149,11908,0.4
96,W 49 St & 8 Ave,40.76227205,-73.98788205,11836,0.4
97,E 72 St & York Ave,40.76663814,-73.95348296,11809,0.4
98,6 Ave & W 34 St,40.74964,-73.98805,11764,0.4
99,E 4 St & 2 Ave,40.7262807,-73.98978041,11713,0.4
100,1 Ave & E 30 St,40.74144387,-73.97536082,11710,0.4
101,Murray St & Greenwich St,40.71485151,-74.01122332,11688,0.4
102,St Marks Pl & 2 Ave,40.7284186,-73.98713956,11602,0.4
103,5 Ave & E 78 St,40.77632142,-73.96427393,11550,0.4
104,South St & Gouverneur Ln,40.70355377,-74.00670227,11504,0.4
105,2 Ave & E 72 St,40.76876203,-73.95840794,11439,0.4
106,E 2 St & Avenue B,40.72217444,-73.98368779,11377,0.4
107,Allen St & Rivington St,40.72019576,-73.98997825,11373,0.4
108,E 58 St & 3 Ave,40.76095756,-73.96724467,11352,0.4
109,Riverside Blvd & W 67 St,40.77750703,-73.98888588,11338,0.4
110,E 2 St & Avenue A,40.72307749,-73.98583621,11220,0.4
111,E 32 St & Park Ave,40.7457121,-73.98194829,11204,0.4
112,W 50 St & 9 Ave,40.76360468,-73.98917958,11193,0.4
113,W 20 St & 8 Ave,40.74345335,-74.00004031,11160,0.35
114,Allen St & Stanton St,40.722055,-73.989111,11156,0.35
115,W 33 St & 7 Ave,40.75019995,-73.99093085,11122,0.35
116,E 6 St & Avenue B,40.72453734,-73.98185424,11111,0.35
117,St Marks Pl & 1 Ave,40.72779126,-73.98564945,11067,0.35
118,W 53 St & 10 Ave,40.76669671,-73.99061728,10978,0.35
119,10 Ave & W 28 St,40.75066386,-74.00176802,10948,0.35
120,E 55 St & 2 Ave,40.75797322,-73.96603308,10889,0.35
121,Central Park West & W 100 St,40.79406661,-73.96286845,10884,0.35
122,Allen St & Hester St,40.71605866,-73.99190759,10713,0.35
123,Cooper Square & Astor Pl,40.72951496,-73.9907527,10707,0.35
124,W 27 St & 7 Ave,40.746647,-73.993915,10661,0.35
125,Broadway & W 49 St,40.76068327,-73.98452729,10620,0.35
126,Washington St & Gansevoort St,40.739323,-74.008119,10613,0.35
127,9 Ave & W 28 St,40.74937024,-73.99923384,10607,0.35
128,Suffolk St & Stanton St,40.72066442,-73.98517977,10560,0.35
129,11 Ave & W 27 St,40.751396,-74.005226,10548,0.35
130,W 59 St & 10 Ave,40.770513,-73.988038,10497,0.35
131,W 46 St & 11 Ave,40.76341379,-73.99667444,10439,0.35
132,Bank St & Washington St,40.7361967,-74.00859207,10396,0.35
133,Bank St & Hudson St,40.73652889,-74.00618026,10357,0.35
134,Central Park West & W 76 St,40.77896784,-73.97374737,10347,0.35
135,Columbus Ave & W 95 St,40.7919557,-73.968087,10343,0.35
136,E 20 St & FDR Drive,40.73314259,-73.97573881,10325,0.35
137,Perry St & Bleecker St,40.73535398,-74.00483091,10300,0.35
138,Atlantic Ave & Furman St,40.69165183,-73.9999786,10243,0.35
139,W 20 St & 7 Ave,40.74238787,-73.99726235,10097,0.35
140,Broadway & Battery Pl,40.70463334,-74.01361706,10060,0.35
141,W 70 St & Amsterdam Ave,40.77748046,-73.98288594,10003,0.35
142,North Moore St & Greenwich St,40.72019521,-74.01030064,9987,0.35
143,E 39 St & 3 Ave,40.7489006,-73.97604882,9979,0.35
144,Metropolitan Ave & Bedford Ave,40.71534825,-73.96024116,9965,0.35
145,1 Ave & E 5 St,40.725864,-73.986389,9922,0.35
146,Cherry St,40.71219906,-73.97948148,9916,0.35
147,5 Ave & E 29 St,40.7451677,-73.98683077,9901,0.35
148,W 59 St & West End Ave,40.771771,-73.990625,9852,0.35
149,W 25 St & 6 Ave,40.74395411,-73.99144871,9830,0.35
150,Henry St & Grand St,40.714211,-73.981095,9776,0.35
151,Lafayette St & Jersey St,40.72456089,-73.99565293,9751,0.35
152,Franklin Ave & Empire Blvd,40.66314,-73.9605695,9749,0.35
153,E 2 St & 2 Ave,40.72502876,-73.99069656,9741,0.35
154,Union Ave & N 12 St,40.71924,-73.95242,9651,0.35
155,E 84 St & 1 Ave,40.77565541,-73.95068615,9650,0.35
156,W 30 St & 10 Ave,40.752694,-74.002353,9602,0.35
157,W 13 St & 7 Ave,40.73781509,-73.99994661,9560,0.3
158,Wall St & South St,40.70437,-74.00637,9553,0.3
159,E 16 St & 5 Ave,40.73726186,-73.99238967,9526,0.3
160,Mercer St & Bleecker St,40.72706363,-73.99662137,9474,0.3
161,E 24 St & Park Ave S,40.74096374,-73.98602213,9449,0.3
162,W 15 St & 6 Ave,40.73804614,-73.99642959,9441,0.3
163,W 169 St & Fort Washington Ave,40.8428422,-73.9421253,9435,0.3
164,Stanton St & Chrystie St,40.72229346,-73.99147535,9381,0.3
165,Great Jones St,40.72743423,-73.99379025,9363,0.3
166,5 Ave & E 103 St,40.7922553,-73.95249933,9355,0.3
167,South St & Whitehall St,40.70122128,-74.01234218,9350,0.3
168,11 Ave & W 59 St,40.77149671,-73.99046034,9334,0.3
169,E 12 St & 3 Ave,40.73223272,-73.98889957,9239,0.3
170,Wythe Ave & Metropolitan Ave,40.716887,-73.963198,9234,0.3
171,W 11 St & 6 Ave,40.73532427,-73.99800419,9197,0.3
172,Gansevoort St & Hudson St,40.7394482,-74.00507033,9152,0.3
173,E 74 St & 1 Ave,40.7689738,-73.95482273,9139,0.3
174,Liberty St & Broadway,40.70905623,-74.01043382,9114,0.3
175,Greenwich St & W Houston St,40.728846,-74.008591,9106,0.3
176,Washington Pl & 6 Ave,40.73224119,-74.00026394,9071,0.3
177,Broadway & W 41 St,40.75513557,-73.98658032,9050,0.3
178,3 St & Prospect Park West,40.668132,-73.97363831,9038,0.3
179,Greenwich Ave & Charles St,40.735238,-74.000271,8998,0.3
180,Broadway & W 29 St,40.7462009,-73.98855723,8972,0.3
181,E 88 St & 1 Ave,40.778301,-73.9488134,8965,0.3
182,Amsterdam Ave & W 79 St,40.7829391,-73.9786517,8961,0.3
183,W 56 St & 10 Ave,40.768254,-73.988639,8897,0.3
184,E 19 St & 3 Ave,40.73624527,-73.98473765,8869,0.3
185,W 55 St & 6 Ave,40.763189,-73.978434,8862,0.3
186,E 10 St & 5 Ave,40.73331967,-73.99510132,8847,0.3
187,W 42 St & Dyer Ave,40.75898481,-73.99379969,8805,0.3
188,E 33 St & 5 Ave,40.74765947,-73.98490707,8792,0.3
189,E 20 St & Park Ave,40.73827428,-73.98751968,8776,0.3
190,W 34 St & 11 Ave,40.75594159,-74.0021163,8772,0.3
191,1 Ave & E 44 St,40.75001986,-73.96905301,8720,0.3
192,Cliff St & Fulton St,40.70838,-74.00495,8675,0.3
193,W 64 St & Thelonious Monk Circle,40.77515953,-73.98918696,8669,0.3
194,Lexington Ave & E 36 St,40.74757396,-73.97880077,8646,0.3
195,W 63 St & Broadway,40.77163851,-73.98261428,8625,0.3
196,E 2 St & Avenue C,40.7208736,-73.98085795,8602,0.3
197,Front St & Washington St,40.70255088,-73.98940236,8602,0.3
198,W 45 St & 8 Ave,40.75929124,-73.98859651,8594,0.3
199,E 11 St & Avenue B,40.72746421,-73.97950418,8523,0.3
200,Lexington Ave & E 26 St,40.741459,-73.983293,8507,0.3
201,Rivington St & Ridge St,40.71850211,-73.98329859,8457,0.3
202,Center Blvd & 51 Ave,40.74336608,-73.95960689,8273,0.3
203,Frederick Douglass Blvd & W 117 St,40.805159,-73.954692,8210,0.3
204,E 51 St & 1 Ave,40.75455731,-73.96592976,8185,0.3
205,Milton St & Franklin St,40.72906,-73.95779,8170,0.3
206,Bond St & Fulton St,40.68962189,-73.98304269,8150,0.3
207,E 91 St & 2 Ave,40.7811223,-73.94965589,8146,0.3
208,E 30 St & Park Ave S,40.74444921,-73.98303529,8135,0.3
209,E 47 St & Park Ave,40.75510267,-73.97498696,8089,0.3
210,W 42 St & 8 Ave,40.7575699,-73.99098507,8088,0.3
211,MacDougal St & Washington Sq,40.73226398,-73.99852205,8088,0.3
212,E 9 St & Avenue C,40.72521311,-73.97768752,8045,0.3
213,W 18 St & 6 Ave,40.73971301,-73.99456405,8032,0.3
214,Stanton St & Norfolk St,40.720747,-73.986274,7977,0.25
215,Riverside Dr & W 104 St,40.8013434,-73.97114574,7972,0.25
216,W 15 St & 10 Ave,40.74275383,-74.00747359,7927,0.25
217,Fulton St & Broadway,40.711066,-74.009447,7920,0.25
218,Watts St & Greenwich St,40.72405549,-74.00965965,7913,0.25
219,Forsyth St & Broome St,40.71893904,-73.99266288,7884,0.25
220,Kent Ave & S 11 St,40.70764494,-73.96841526,7846,0.25
221,E 102 St & 1 Ave,40.7869946,-73.94164802,7841,0.25
222,E 51 St & 2 Ave,40.755293,-73.967641,7815,0.25
223,W 42 St & 6 Ave,40.75492,-73.98455,7799,0.25
224,W 100 St & Broadway,40.7973721,-73.97041192,7775,0.25
225,2 Ave & E 96 St,40.7839636,-73.9471673,7764,0.25
226,W 106 St & Central Park West,40.7981856,-73.9605909,7759,0.25
227,E 25 St & 1 Ave,40.7381765,-73.97738662,7722,0.25
228,W 95 St & Broadway,40.7937704,-73.971888,7651,0.25
229,Riverside Dr & W 91 St,40.79313481,-73.97700369,7635,0.25
230,E 53 St & Lexington Ave,40.75828065,-73.97069431,7598,0.25
231,Cathedral Pkwy & Broadway,40.804213,-73.96699104,7543,0.25
232,Pearl St & Hanover Square,40.7047177,-74.00926027,7482,0.25
233,W 16 St & The High Line,40.74334935,-74.00681753,7477,0.25
234,Frederick Douglass Blvd & W 112 St,40.801694,-73.957145,7434,0.25
235,4 Ave & E 12 St,40.732647,-73.99011,7433,0.25
236,Riverside Dr & W 82 St,40.78720869,-73.98128127,7431,0.25
237,5 Ave & E 63 St,40.766368,-73.971518,7430,0.25
238,N 6 St & Bedford Ave,40.71745169,-73.95850939,7421,0.25
239,Brooklyn Bridge Park - Pier 2,40.698458,-73.997178,7405,0.25
240,Amsterdam Ave & W 82 St,40.78524672,-73.97667321,7391,0.25
241,W 82 St & Central Park West,40.78275,-73.97137,7377,0.25
242,Pike St & Monroe St,40.71173107,-73.99193043,7336,0.25
243,9 Ave & W 18 St,40.74317449,-74.00366443,7332,0.25
244,E 58 St &  1 Ave (NW Corner),40.759125,-73.962658,7318,0.25
245,Broadway & Berry St,40.71044554,-73.96525063,7289,0.25
246,46 Ave & 5 St,40.74731,-73.95451,7283,0.25
247,Broadway & W 53 St,40.76344058,-73.98268129,7272,0.25
248,Rivington St & Chrystie St,40.72110063,-73.9919254,7269,0.25
249,E 97 St & Madison Ave,40.787801,-73.953559,7249,0.25
250,Lispenard St & Broadway,40.71939226,-74.00247214,7241,0.25
251,E 81 St & York Ave,40.7728384,-73.94989233,7198,0.25
252,Bayard St & Baxter St,40.71602118,-73.99974372,7197,0.25
253,S 3 St & Bedford Ave,40.71260486,-73.96264403,7194,0.25
254,W 52 St & 6 Ave,40.76132983,-73.97982001,7135,0.25
255,Bedford Ave & Nassau Ave,40.72311651,-73.95212324,7119,0.25
256,W 89 St & Columbus Ave,40.7882213,-73.97041561,7112,0.25
257,W 31 St & 7 Ave,40.749156,-73.9916,7100,0.25
258,E 45 St & 3 Ave,40.75255434,-73.97282625,7085,0.25
259,W 35 St & Dyer Ave,40.75469175,-73.99740189,7073,0.25
260,W 40 St & 5 Ave,40.752269,-73.982079,7058,0.25
261,Murray St & West St,40.7149787,-74.013012,7025,0.25
262,W 13 St & 5 Ave,40.735445,-73.99431,6995,0.25
263,W Broadway & W Houston St,40.726378,-74.000472,6978,0.25
264,Avenue C & E 18 St,40.730563,-73.973984,6955,0.25
265,E 48 St & 5 Ave,40.75724568,-73.97805914,6931,0.25
266,Spruce St & Nassau St,40.71146364,-74.00552427,6891,0.25
267,Astoria Park S & Shore Blvd,40.7767,-73.927631,6880,0.25
268,E 47 St & 2 Ave,40.75323098,-73.97032517,6844,0.25
269,Pike St & E Broadway,40.71406667,-73.99293911,6835,0.25
270,1 Ave & E 16 St,40.73221853,-73.98165557,6793,0.25
271,Howard St & Centre St,40.71910537,-73.99973337,6756,0.25
272,W 84 St & Columbus Ave,40.78499979,-73.97283406,6731,0.25
273,E 81 St & 2 Ave,40.77477945,-73.95427465,6717,0.25
274,W 26 St & 10 Ave,40.74971775,-74.00295035,6690,0.25
275,1 Ave & E 94 St,40.7817212,-73.94594,6639,0.25
276,Pearl St & Peck Slip,40.708485,-74.002751,6629,0.25
277,West End Ave & W 94 St,40.7941654,-73.974124,6599,0.25
278,Madison St & Clinton St,40.71269042,-73.98776323,6590,0.25
279,5 Ave & E 93 St,40.7857851,-73.957481,6574,0.25
280,Broadway & W 38 St,40.75299641,-73.98721619,6558,0.25
281,LaGuardia Pl & W 3 St,40.72917025,-73.99810231,6551,0.25
282,W 45 St & 6 Ave,40.7568001,-73.98291153,6522,0.25
283,E 110 St & Madison Ave,40.7961535,-73.94782145,6505,0.25
284,Hanson Pl & Ashland Pl,40.68506807,-73.9779076,6448,0.25
285,Lenox Ave & W 126 St,40.808442,-73.9452087,6442,0.25
286,Maiden Ln & Pearl St,40.70706456,-74.00731853,6441,0.25
287,Hope St & Union Ave,40.71167351,-73.95141312,6431,0.25
288,E 89 St & 3 Ave,40.7806284,-73.9521667,6401,0.25
289,Mercer St & Spring St,40.72362738,-73.99949601,6399,0.25
290,Riverside Dr & W 78 St,40.78414472,-73.98362492,6392,0.25
291,Bergen St & Smith St,40.6867443,-73.99063168,6284,0.2
292,South End Ave & Liberty St,40.711512,-74.015756,6282,0.2
293,William St & Pine St,40.70717936,-74.00887308,6265,0.2
294,Jay St & York St,40.70140317,-73.9867267,6245,0.2
295,Fulton St & William St,40.70955958,-74.00653609,6239,0.2
296,E 43 St & 2 Ave,40.75022392,-73.97121414,6233,0.2
297,DeKalb Ave & S Portland Ave,40.68981035,-73.97493121,6226,0.2
298,W 76 St & Columbus Ave,40.78018397,-73.97728533,6218,0.2
299,W 37 St & 5 Ave,40.75038009,-73.98338988,6215,0.2
300,Pleasant Ave & E 116 St,40.7949879,-73.9333349,6204,0.2
301,Washington Pl & Broadway,40.72903917,-73.99404649,6159,0.2
302,Jay St & Tech Pl,40.695065,-73.987167,6139,0.2
303,Avenue D & E 3 St,40.72082834,-73.97793172,6118,0.2
304,Fulton St & Adams St,40.69241829,-73.98949474,6098,0.2
305,Pershing Square South,40.751581,-73.97791,6074,0.2
306,W 67 St & Broadway,40.77492513,-73.98266566,6052,0.2
307,3 Ave & Schermerhorn St,40.68683208,-73.9796772,6026,0.2
308,Clark St & Henry St,40.69760127,-73.99344559,6011,0.2
309,N 12 St & Bedford Ave,40.72079821,-73.95484712,6009,0.2
310,Lexington Ave & E 29 St,40.74311555,-73.98215353,5999,0.2
311,W 87 St & West End Ave,40.789622,-73.97757,5979,0.2
312,E 5 St & Avenue C,40.72299208,-73.97995466,5957,0.2
313,Reade St & Broadway,40.71450451,-74.00562789,5939,0.2
314,DeKalb Ave & Hudson Ave,40.689888,-73.981013,5927,0.2
315,Driggs Ave & N 9 St,40.71816969,-73.95520136,5922,0.2
316,Bus Slip & State St,40.701907,-74.013942,5875,0.2
317,Division St & Bowery,40.714193,-73.996732,5872,0.2
318,Madison St & Montgomery St,40.713126,-73.984844,5857,0.2
319,Avenue D & E 8 St,40.72387,-73.975767,5853,0.2
320,Center Blvd & 48 Ave,40.745038,-73.957539,5853,0.2
321,W 54 St & 9 Ave,40.76584941,-73.98690506,5846,0.2
322,Lawrence St & Willoughby St,40.69236178,-73.98631746,5833,0.2
323,Stagg St & Union Ave,40.70877084,-73.95095259,5812,0.2
324,McGuinness Blvd & Eagle St,40.73555,-73.95284,5800,0.2
325,Leonard St & Church St,40.717571,-74.005549,5776,0.2
326,Atlantic Ave & Fort Greene Pl,40.68382604,-73.97632328,5774,0.2
327,E 16 St & Irving Pl,40.73536706,-73.98797393,5755,0.2
328,Hudson St & Reade St,40.71625008,-74.0091059,5752,0.2
329,Centre St & Worth St,40.71494807,-74.00234482,5749,0.2
330,Liberty Light Rail,40.7112423,-74.0557013,5744,0.2
331,Grand St & Havemeyer St,40.71286844,-73.95698119,5744,0.2
332,1 Ave & E 18 St,40.73381219,-73.98054421,5709,0.2
333,Madison Ave & E 99 St,40.78948542,-73.95242929,5690,0.2
334,Lafayette Ave & Fort Greene Pl,40.68691865,-73.976682,5685,0.2
335,E 56 St & 3 Ave,40.75934501,-73.96759673,5685,0.2
336,E 77 St & 3 Ave,40.77314236,-73.95856158,5654,0.2
337,E 12 St & Ave C,40.727243,-73.976831,5640,0.2
338,Franklin St & Dupont St,40.73564,-73.95866,5636,0.2
339,Berry St & N 8 St,40.7190095,-73.95852515,5635,0.2
340,Frederick Douglass Blvd & W 115 St,40.8038654,-73.9559308,5631,0.2
341,44 Dr & Jackson Ave,40.74718234,-73.9432635,5629,0.2
342,3 Ave & E 62 St,40.76312584,-73.96526895,5613,0.2
343,W 44 St & 5 Ave,40.75500254,-73.98014437,5588,0.2
344,Grand St & Greene St,40.72170005,-74.00238141,5587,0.2
345,St. Nicholas Ave & W 126 St,40.8114323,-73.9518776,5575,0.2
346,Newport Pkwy,40.7287448,-74.0321082,5569,0.2
347,6 Ave & Canal St,40.72243797,-74.00566443,5567,0.2
348,Broadway & W 36 St,40.75097711,-73.98765428,5506,0.2
349,Perry St & Greenwich Ave,40.735918,-74.000939,5504,0.2
350,Broadway & W 51 St,40.76228826,-73.98336183,5504,0.2
351,E 47 St & 1 Ave,40.75206862,-73.96784384,5437,0.2
352,E 65 St & 2 Ave,40.76471852,-73.9622207,5411,0.2
353,Lenox Ave & W 130 St,40.8107922,-73.9430681,5411,0.2
354,W 87 St & Amsterdam Ave,40.78839,-73.9747,5406,0.2
355,Court St & State St,40.6902375,-73.99203074,5405,0.2
356,Front St & Maiden Ln,40.70530954,-74.00612572,5403,0.2
357,Catherine St & Monroe St,40.71117444,-73.99682619,5398,0.2
358,Bedford Ave & Bergen St,40.676368,-73.952918,5379,0.2
359,W 74 St & Columbus Ave,40.7785669,-73.97754961,5359,0.2
360,Plaza St West & Flatbush Ave,40.6750207,-73.97111473,5353,0.2
361,Front St & Jay St,40.702461,-73.986842,5285,0.2
362,W 84 St & Broadway,40.7867947,-73.977112,5235,0.2
363,Graham Ave & Conselyea St,40.715143,-73.944507,5217,0.2
364,Huron St & Franklin St,40.73266,-73.95826,5212,0.2
365,India St & Manhattan Ave,40.73232194,-73.9550858,5210,0.2
366,Delancey St & Eldridge St,40.719383,-73.991479,5175,0.2
367,Grove St PATH,40.71958612,-74.04311746,5158,0.2
368,Columbia St & Rivington St,40.71739973,-73.98016555,5150,0.2
369,E 89 St & York Ave,40.7779453,-73.946041,5135,0.2
370,Schermerhorn St & Bond St,40.68841743,-73.98451656,5128,0.2
371,E 41 St & Madison Ave,40.75216528,-73.97992194,5115,0.2
372,East End Ave & E 86 St,40.77518615,-73.94446054,5107,0.2
373,E 53 St & Madison Ave,40.7597108,-73.97402311,5104,0.2
374,Barclay St & Church St,40.71291224,-74.01020234,5096,0.2
375,E 82 St & East End Ave,40.7724607,-73.9468208,5051,0.2
376,Eastern Pkwy & Franklin Ave,40.6707767,-73.9576801,5047,0.2
377,Hicks St & Montague St,40.69512845,-73.99595065,5033,0.2
378,E 81 St & 3 Ave,40.77573034,-73.9567526,4989,0.2
379,E 48 St & 3 Ave,40.7546011,-73.97187886,4960,0.2
380,E 63 St & 3 Ave,40.763954,-73.9646,4951,0.2
381,Driggs Ave & Lorimer St,40.72179134,-73.9504154,4922,0.2
382,Stanton St & Mangin St,40.71782143,-73.97628939,4910,0.2
383,Market St & Cherry St,40.71076228,-73.99400398,4904,0.2
384,John St & William St,40.70862144,-74.00722156,4885,0.2
385,Duffield St & Willoughby St,40.69221589,-73.9842844,4884,0.2
386,Ditmars Blvd & 19 St,40.78145,-73.9183302,4883,0.2
387,W Broadway & Spring St,40.72494672,-74.00165856,4861,0.2
388,Prospect Park West & 8 St,40.66514682,-73.97637606,4856,0.2
389,Graham Ave & Grand St,40.711863,-73.944024,4837,0.2
390,E 59 St & Madison Ave,40.76350532,-73.97109243,4830,0.2
391,W 100 St & Manhattan Ave,40.795,-73.9645,4796,0.2
392,W 110 St & Amsterdam Ave,40.802692,-73.96295,4760,0.15
393,Madison Ave & E 82 St,40.7781314,-73.96069399,4757,0.15
394,Roebling St & N 4 St,40.71469,-73.95739,4736,0.15
395,E 75 St & 3 Ave,40.77112927,-73.95772297,4735,0.15
396,St James Pl & Oliver St,40.71307916,-73.99851193,4732,0.15
397,E 85 St & York Ave,40.77536905,-73.94803392,4728,0.15
398,DeKalb Ave & Vanderbilt Ave,40.68940747,-73.96885458,4671,0.15
399,Clinton Ave & Myrtle Ave,40.693261,-73.968896,4668,0.15
400,W 52 St & 5 Ave,40.75992262,-73.97648516,4659,0.15
401,Dean St & 4 Ave,40.68312489,-73.97895137,4652,0.15
402,E 72 St & Park Ave,40.77118288,-73.96409422,4642,0.15
403,E 76 St & Park Ave,40.773763,-73.96222088,4620,0.15
404,E 84 St & Park Ave,40.77862688,-73.95772073,4609,0.15
405,1 Ave & E 110 St,40.7923272,-73.9383,4589,0.15
406,E 51 St & Lexington Ave,40.75714758,-73.97207836,4566,0.15
407,Henry St & Atlantic Ave,40.69089272,-73.99612349,4564,0.15
408,Fulton St & Waverly Ave,40.68323865,-73.96599591,4557,0.15
409,Meserole Ave & Manhattan Ave,40.72708584,-73.95299117,4547,0.15
410,E 78 St & 2 Ave,40.7727966,-73.95577801,4528,0.15
411,Duane St & Greenwich St,40.71748752,-74.0104554,4525,0.15
412,Scholes St & Manhattan Ave,40.70870368,-73.9448625,4511,0.15
413,Franklin St & W Broadway,40.71911552,-74.00666661,4506,0.15
414,W 90 St & Amsterdam Ave,40.79017948,-73.97288918,4489,0.15
415,Bergen St & Vanderbilt Ave,40.6794388,-73.9680438,4457,0.15
416,Willoughby St & Fleet St,40.69196566,-73.9813018,4445,0.15
417,E 60 St & York Ave,40.759107,-73.959223,4434,0.15
418,St Nicholas Ave & Manhattan Ave,40.809725,-73.953149,4424,0.15
419,S 4 St & Rodney St,40.70934,-73.95608,4414,0.15
420,West End Ave & W 107 St,40.8021174,-73.96818053,4395,0.15
421,Water - Whitehall Plaza,40.70255065,-74.0127234,4391,0.15
422,Washington Park,40.6917823,-73.9737299,4387,0.15
423,3 Ave & E 72 St,40.7699426,-73.96060712,4381,0.15
424,W 92 St & Broadway,40.7921,-73.9739,4362,0.15
425,Lenox Ave & W 117 St,40.8025566,-73.9490782,4359,0.15
426,Park Pl & Vanderbilt Ave,40.6767,-73.969024,4351,0.15
427,Nassau St & Navy St,40.69839895,-73.98068914,4349,0.15
428,Congress St & Clinton St,40.6881529,-73.99520919,4334,0.15
429,1 Ave & E 16 St [temporarily removed],40.73221853,-73.98165557,4333,0.15
430,27 St & Hunter St,40.7485,-73.941275,4326,0.15
431,Cadman Plaza E & Red Cross Pl,40.69991755,-73.98971773,4306,0.15
432,Johnson St & Gold St,40.69474881,-73.98362464,4303,0.15
433,Nassau Ave & Russell St,40.72557,-73.94434,4299,0.15
434,Vernon Blvd & 41 Rd,40.7552433,-73.9485678,4289,0.15
435,31 St & 23 Ave,40.7747878,-73.9125551,4280,0.15
436,Metropolitan Ave & Meeker Ave,40.71413311,-73.95234386,4279,0.15
437,Dean St & Franklin Ave,40.67759207,-73.95563722,4263,0.15
438,Lafayette Ave & St James Pl,40.68851534,-73.9647628,4253,0.15
439,31 St & Newtown Ave,40.76754878,-73.92093346,4247,0.15
440,1 Ave & E 18 St [temporarily removed],40.73381219,-73.98054421,4235,0.15
441,31 St & Broadway,40.761584,-73.925921,4235,0.15
442,Suydam St & Knickerbocker Ave,40.702013,-73.923769,4225,0.15
443,43 St & Broadway,40.7577284,-73.9166368,4219,0.15
444,W 106 St & Amsterdam Ave,40.8008363,-73.96644925,4200,0.15
445,E 43 St & 5 Ave,40.75412081,-73.98025185,4172,0.15
446,E 66 St & Madison Ave,40.76800889,-73.96845281,4169,0.15
447,Avenue D & E 12 St,40.72580614,-73.97422494,4165,0.15
448,Flushing Ave & Vanderbilt Ave,40.69795032,-73.9707756,4148,0.15
449,7 Ave & Park Pl,40.6776147,-73.97324283,4142,0.15
450,36 Ave & 10 St,40.7614376,-73.9411265,4101,0.15
451,Devoe St & Lorimer St,40.71335226,-73.94910336,4098,0.15
452,3 Ave & E 71 St,40.76873687,-73.96119945,4097,0.15
453,Vernon Blvd & 50 Ave,40.74232744,-73.95411749,4094,0.15
454,Fulton St & Utica Ave,40.6794268,-73.9298911,4091,0.15
455,Underhill Ave & Lincoln Pl,40.6740123,-73.9671457,4072,0.15
456,Bialystoker Pl & Delancey St,40.71622644,-73.98261206,4068,0.15
457,Amsterdam Ave & W 66 St,40.7746671,-73.98470567,4058,0.15
458,Broadway & Roebling St,40.70924826,-73.96063149,4050,0.15
459,West End Ave & W 78 St,40.783786,-73.981687,4045,0.15
460,Park Pl & Church St,40.71334184,-74.00935516,4035,0.15
461,E 68 St & 3 Ave,40.7671284,-73.96224618,4017,0.15
462,E 58 St & Madison Ave,40.76302594,-73.97209525,4010,0.15
463,2 Ave & E 104 St,40.7892105,-73.94370784,4002,0.15
464,5 Ave & 3 St,40.6728155,-73.98352355,3994,0.15
465,Montague St & Clinton St,40.69428114,-73.99230033,3989,0.15
466,E 118 St & 3 Ave,40.799139,-73.9389152,3976,0.15
467,Driggs Ave & N Henry St,40.72325,-73.94308,3970,0.15
468,Vernon Blvd & 10 St,40.7671863,-73.9373554,3962,0.15
469,Bergen St & Flatbush Ave,40.68094472,-73.97567332,3947,0.15
470,W 47 St & 6 Ave,40.758397,-73.98255,3921,0.15
471,Marcy Ave & Lafayette Ave,40.6900815,-73.947915,3920,0.15
472,Cadman Plaza E & Johnson St,40.69531728,-73.99015725,3913,0.15
473,Hamilton Park,40.72759597,-74.04424731,3894,0.15
474,E 88 St & Park Ave,40.7814107,-73.95595908,3886,0.15
475,DeKalb Ave & Franklin Ave,40.69064807,-73.95746179,3885,0.15
476,India St & West St,40.73181402,-73.95995021,3872,0.15
477,Mt Morris Park W & W 120 St,40.804038,-73.945925,3870,0.15
478,Kingston Ave & Herkimer St,40.67890679,-73.94142771,3865,0.15
479,Adam Clayton Powell Blvd & W 126 St,40.80949535,-73.94776493,3865,0.15
480,Emerson Pl & Myrtle Ave,40.69363137,-73.96223558,3845,0.15
481,Vernon Blvd & 47 Rd,40.7449067,-73.9534573,3835,0.15
482,14 St & 5 Ave,40.666287,-73.98895053,3821,0.15
483,31 Ave & 34 St,40.763154,-73.920827,3790,0.15
484,Cumberland St & Lafayette Ave,40.68753406,-73.97265183,3786,0.15
485,Leonard St & Nassau Ave,40.72395678,-73.94984365,3784,0.15
486,Amsterdam Ave & W 125 St,40.813358,-73.956461,3781,0.15
487,Clinton St & Joralemon St,40.69239502,-73.99337909,3779,0.15
488,Lenox Ave & W 115 St,40.8011939,-73.9500739,3779,0.15
489,E 93 St & 2 Ave,40.78245418,-73.94891962,3762,0.15
490,Montrose Ave & Bushwick Ave,40.70767788,-73.94016171,3756,0.15
491,W 18 St & 9 Ave,40.74353373,-74.00367558,3737,0.15
492,Frederick Douglass Blvd & W 129 St,40.8125511,-73.9492286,3718,0.15
493,Berkeley Pl & 7 Ave,40.67514684,-73.97523209,3705,0.15
494,E 103 St & Lexington Ave,40.7903051,-73.94755757,3700,0.15
495,Central Park West & W 102 St,40.795346,-73.96186,3697,0.15
496,E 58 St & 1 Ave (NE Corner),40.75892386,-73.96226227,3687,0.15
497,Broadway & W 37 St,40.75172632,-73.98753523,3669,0.15
498,Schermerhorn St & Court St,40.69102926,-73.99183363,3639,0.15
499,State St & Smith St,40.68926942,-73.98912867,3580,0.15
500,Lafayette Ave & Classon Ave,40.68900443,-73.96023854,3551,0.15
501,Marin Light Rail,40.71458404,-74.04281706,3539,0.15
502,Nassau Ave & Newell St,40.72481256,-73.94752622,3532,0.15
503,Harborside,40.7192517,-74.034234,3532,0.15
504,Myrtle Ave & St Edwards St,40.69327018,-73.97703874,3530,0.15
505,Lewis Ave & Madison St,40.686312,-73.935775,3525,0.15
506,W 104 St & Amsterdam Ave,40.79904139,-73.9664948,3522,0.15
507,Broadway & Moylan Pl,40.8143256,-73.9590255,3517,0.15
508,Columbia Heights & Cranberry St,40.70037867,-73.99548059,3501,0.15
509,St James Pl & Pearl St,40.71117416,-74.00016545,3501,0.15
510,E 95 St & 3 Ave,40.7849032,-73.950503,3499,0.15
511,Leonard St & Maujer St,40.71036854,-73.94705951,3495,0.15
512,Lexington Ave & Classon Ave,40.68676793,-73.95928168,3486,0.15
513,E 91 St & Park Ave,40.7835016,-73.955327,3463,0.15
514,Adelphi St & Myrtle Ave,40.69308257,-73.97178913,3435,0.15
515,Rogers Ave & Sterling St,40.6630619,-73.9538746,3427,0.15
516,34 Ave & 38 St,40.756913,-73.921631,3423,0.15
517,Park Ave & E 124 St,40.8045555,-73.9396861,3404,0.15
518,E 56 St & Madison Ave,40.761573,-73.972628,3400,0.15
519,28 St & 41 Ave,40.751047,-73.93797,3399,0.15
520,Steinway St & 28 Ave,40.7656251,-73.9136695,3386,0.15
521,Morningside Ave & W 123 St,40.81,-73.9551508,3384,0.15
522,W 113 St & Broadway,40.805973,-73.964928,3370,0.15
523,Crescent St & Broadway,40.7633589,-73.9286471,3368,0.15
524,45 Rd & 11 St,40.74708586,-73.94977234,3358,0.15
525,Columbus Dr at Exchange Pl,40.71687,-74.03281,3356,0.15
526,St Johns Pl & Washington Ave,40.6737236,-73.9631611,3349,0.15
527,Carlton Ave & Dean St,40.6809741,-73.9710097,3343,0.15
528,E 114 St & 1 Ave,40.7945663,-73.9362541,3332,0.15
529,Sterling Pl & Bedford Ave,40.672695,-73.954131,3327,0.15
530,Monroe St & Classon Ave,40.6845683,-73.95881081,3314,0.15
531,Halsey St & Tompkins Ave,40.6823687,-73.944118,3304,0.15
532,Henry St & Middagh St,40.7003,-73.991581,3291,0.15
533,Monroe St & Bedford Ave,40.6851443,-73.95380904,3289,0.15
534,Willoughby Ave & Walworth St,40.69331716,-73.95381995,3288,0.15
535,E 106 St & Madison Ave,40.7934337,-73.94945003,3281,0.15
536,Lexington Ave & E 111 St,40.7954121,-73.9441232,3278,0.15
537,Eastern Pkwy & Washington Ave,40.6716493,-73.9631145,3273,0.15
538,Broad St & Bridge St,40.70365182,-74.01167797,3264,0.15
539,Macon St & Nostrand Ave,40.68098339,-73.95004798,3255,0.15
540,2 Ave & E 99 St,40.7862586,-73.94552579,3249,0.15
541,E 106 St & 1 Ave,40.7892529,-73.93956237,3243,0.15
542,Columbia St & Degraw St,40.6859296,-74.00242364,3238,0.15
543,Broadway & Whipple St,40.7016657,-73.9437303,3237,0.15
544,Van Brunt St & Van Dyke St,40.67583294,-74.01472628,3235,0.15
545,Baltic St & 5 Ave,40.6795766,-73.97854971,3222,0.15
546,E 106 St & Lexington Ave,40.791976,-73.945993,3216,0.15
547,Willoughby Ave & Tompkins Ave,40.69425403,-73.94626915,3210,0.15
548,E 68 St & Madison Ave,40.7691572,-73.96703464,3199,0.15
549,6 St & 7 Ave,40.6686627,-73.97988067,3183,0.1
550,Greene Ave & Nostrand Ave,40.6883337,-73.950916,3174,0.1
551,E 115 St & Lexington Ave,40.797911,-73.9423,3172,0.1
552,Banker St & Meserole Ave,40.72606,-73.95621,3157,0.1
553,Kosciuszko St & Nostrand Ave,40.69072549,-73.95133465,3150,0.1
554,Carroll St & Smith St,40.680611,-73.99475825,3148,0.1
555,Bayard St & Leonard St,40.71915572,-73.94885391,3125,0.1
556,S Portland Ave & Hanson Pl,40.68539567,-73.97431458,3117,0.1
557,Willoughby Ave & Hall St,40.69196035,-73.96536851,3116,0.1
558,Concord St & Bridge St,40.69766564,-73.98476437,3113,0.1
559,Classon Ave & St Marks Ave,40.6765198,-73.9596082,3108,0.1
560,Hancock St & Bedford Ave,40.68216564,-73.95399026,3098,0.1
561,Union St & 4 Ave,40.6772744,-73.98282002,3096,0.1
562,Vernon Blvd & 31 Ave,40.7692475,-73.9354504,3086,0.1
563,36 Ave & 31 St,40.75651273,-73.92957486,3075,0.1
564,W 107 St & Columbus Ave,40.7997568,-73.96211287,3068,0.1
565,E 102 St & Park Ave,40.7904828,-73.95033068,3064,0.1
566,Washington Ave & Park Ave,40.69610226,-73.96751037,3057,0.1
567,Coffey St & Conover St,40.677236,-74.015665,3056,0.1
568,Kosciuszko St & Tompkins Ave,40.69128258,-73.9452416,3054,0.1
569,Adam Clayton Powell Blvd & W 123 St,40.8078316,-73.949373,3026,0.1
570,Columbia St & Kane St,40.68763155,-74.0016256,3025,0.1
571,Henry St & Degraw St,40.6847514,-73.99917254,3024,0.1
572,Front St & Gold St,40.70224,-73.982578,3020,0.1
573,2 Ave & 36 St,40.65708867,-74.00870204,3015,0.1
574,Bushwick Ave & Powers St,40.71247661,-73.94100005,3007,0.1
575,E 109 St & 3 Ave,40.79329668,-73.9432083,3000,0.1
576,Sterling St & Bedford Ave,40.6627059,-73.9569115,2981,0.1
577,Washington Ave & Greene Ave,40.68650065,-73.96563307,2968,0.1
578,28 Ave & 35 St,40.7671,-73.9169858,2935,0.1
579,Fulton St & Clermont Ave,40.68415748,-73.96922273,2929,0.1
580,Greenpoint Ave & Manhattan Ave,40.73026,-73.95394,2928,0.1
581,31 Ave & Steinway St,40.7611488,-73.9170071,2926,0.1
582,JC Medical Center,40.71653978,-74.04963791,2870,0.1
583,St Nicholas Ave & W 137 St,40.818477,-73.947568,2869,0.1
584,14 St & 7 Ave,40.663779,-73.98396846,2841,0.1
585,Bond St & Bergen St,40.6849668,-73.98620772,2834,0.1
586,3 St & 7 Ave,40.6703837,-73.97839676,2829,0.1
587,Sands St Gate,40.699569,-73.979827,2812,0.1
588,Cambridge Pl & Gates Ave,40.68488,-73.96304,2811,0.1
589,Pacific St & Nevins St,40.6853761,-73.98302136,2806,0.1
590,Franklin Ave & St Marks Ave,40.6758324,-73.9561677,2799,0.1
591,W 116 St & Broadway,40.8082,-73.9641,2784,0.1
592,Sip Ave,40.7308971,-74.06391263,2776,0.1
593,19 St & 24 Ave,40.7774552,-73.9225403,2771,0.1
594,21 St & Hoyt Ave S,40.774645,-73.923706,2766,0.1
595,Harrison St & Hudson St,40.71870987,-74.0090009,2759,0.1
596,Carroll St & 5 Ave,40.6751622,-73.9814832,2757,0.1
597,Newport PATH,40.7272235,-74.0337589,2736,0.1
598,31 Ave & 30 St,40.7647,-73.9240312,2735,0.1
599,Division Ave & Hooper St,40.70684203,-73.9544354,2723,0.1
600,Steinway St & 23 Ave,40.7713937,-73.9077436,2714,0.1
601,Monroe St & Tompkins Ave,40.686203,-73.944694,2700,0.1
602,Boerum St & Broadway,40.70538077,-73.94976519,2687,0.1
603,Garfield Pl & 8 Ave,40.6711978,-73.97484126,2685,0.1
604,35 St & Broadway,40.760339,-73.9222427,2676,0.1
605,Pitt St & Stanton St,40.71926081,-73.98178024,2676,0.1
606,Kane St & Clinton St,40.6861758,-73.99645295,2673,0.1
607,Fulton St & Irving Pl,40.68186,-73.959432,2670,0.1
608,Underhill Ave & Pacific St,40.6804836,-73.9646795,2662,0.1
609,Dean St & Hoyt St,40.6864442,-73.98759104,2643,0.1
610,Graham Ave & Withers St,40.7169811,-73.94485918,2643,0.1
611,5 Ave & E 126 St,40.80698,-73.941747,2641,0.1
612,Degraw St & Smith St,40.6829151,-73.99318208,2641,0.1
613,Lewis Ave & Decatur St,40.6814598,-73.934903,2641,0.1
614,N 11 St & Kent Ave,40.72248189,-73.95921931,2631,0.1
615,Clinton Ave & Flushing Ave,40.69794,-73.96986848,2619,0.1
616,City Hall,40.7177325,-74.043845,2614,0.1
617,3 St & 3 Ave,40.6750705,-73.98775226,2596,0.1
618,Sharon St & Olive St,40.715353,-73.93856,2582,0.1
619,Grand Ave & Bergen St,40.678045,-73.962408,2569,0.1
620,E 118 St & 1 Ave,40.79747,-73.93504,2565,0.1
621,Adam Clayton Powell Blvd & W 118 St,40.804372,-73.951475,2554,0.1
622,E 81 St & Park Ave,40.77677702,-73.9590097,2533,0.1
623,21 St & 31 Dr,40.7659,-73.930819,2523,0.1
624,E 67 St & Park Ave,40.7678008,-73.96592081,2522,0.1
625,Morris Canal,40.71241882,-74.03852552,2514,0.1
626,Clermont Ave & Lafayette Ave,40.68764484,-73.96968902,2507,0.1
627,McKibbin St & Manhattan Ave,40.70510918,-73.94407279,2496,0.1
628,W 135 St & Lenox Terrace Pl,40.813619,-73.939336,2484,0.1
629,Newtown Ave & 23 St,40.7713615,-73.9246145,2463,0.1
630,Paulus Hook,40.7141454,-74.0335519,2459,0.1
631,39 St & 2 Ave,40.65539977,-74.01062787,2458,0.1
632,W 120 St & Claremont Ave,40.8109494,-73.9634,2457,0.1
633,Putnam Ave & Throop Ave,40.6851532,-73.94111,2452,0.1
634,E 97 St & 3 Ave,40.7859201,-73.94860294,2448,0.1
635,Grove St & Broadway,40.69047,-73.923511,2439,0.1
636,Laight St & Hudson St,40.72185379,-74.00771779,2436,0.1
637,E 98 St & Park Ave,40.78813,-73.95206,2435,0.1
638,Union Ave & Jackson St,40.7160751,-73.952029,2427,0.1
639,3 Ave & E 112 St,40.795508,-73.941606,2426,0.1
640,Crescent St & 30 Ave,40.768692,-73.9249574,2392,0.1
641,Verona Pl & Fulton St,40.68035608,-73.9476791,2391,0.1
642,Franklin Ave & Myrtle Ave,40.69454609,-73.95801365,2390,0.1
643,Carlton Ave & Flushing Ave,40.697787,-73.973736,2371,0.1
644,48 Ave & 5 St,40.74436329,-73.95587325,2370,0.1
645,Douglass St & 4 Ave,40.6792788,-73.98154004,2361,0.1
646,Carroll St & Bond St,40.6786115,-73.99037292,2361,0.1
647,Madison Ave & E 120 St,40.80295,-73.942954,2358,0.1
648,Park Pl & Franklin Ave,40.6741806,-73.9564947,2353,0.1
649,Melrose St & Broadway,40.697481,-73.935877,2322,0.1
650,44 Dr & 21 St,40.748,-73.9460927,2315,0.1
651,Greene Ave & Throop Ave,40.6894932,-73.942061,2307,0.1
652,Carroll St & 6 Ave,40.6740886,-73.9787282,2302,0.1
653,Clinton St & 4 Place,40.6783563,-74.00014502,2300,0.1
654,Kingsland Ave & Nassau Ave,40.72577,-73.94173,2297,0.1
655,47 Ave & 31 St,40.743,-73.93561,2293,0.1
656,10 St & 7 Ave,40.6662078,-73.98199886,2292,0.1
657,E 116 St & 2 Ave,40.796879,-73.937261,2286,0.1
658,E 115 St & Madison Ave,40.7989445,-73.944846,2274,0.1
659,Carroll St & Columbia St,40.6830456,-74.00348559,2261,0.1
660,Bedford Ave & S 9 St,40.70853074,-73.96408963,2259,0.1
661,Newton Rd & 44 St,40.7595701,-73.9142678,2257,0.1
662,Pierrepont St & Monroe Pl,40.69535693,-73.99344027,2244,0.1
663,Warren St & Court St,40.686371,-73.99383324,2242,0.1
664,Newark Ave,40.72152515,-74.04630454,2215,0.1
665,31 St & Thomson Ave,40.74469738,-73.93540375,2202,0.1
666,Warren St,40.7211236,-74.03805095,2200,0.1
667,35 St & 34 Ave,40.7580583,-73.9242751,2199,0.1
668,Washington St,40.7242941,-74.0354826,2197,0.1
669,Smith St & 9 St,40.6746957,-73.99785768,2194,0.1
670,Vernon Blvd & 30 Rd,40.770845,-73.934171,2186,0.1
671,McKibbin St & Bogart St,40.706237,-73.933871,2184,0.1
672,Irving Ave & Jefferson St,40.70538,-73.92535,2174,0.1
673,Pleasant Ave & E 120 St,40.7974772,-73.9311847,2166,0.1
674,2 Ave & E 122 St,40.8006721,-73.9349,2165,0.1
675,Lefferts Pl & Franklin Ave,40.68034242,-73.95576894,2164,0.1
676,Leonard St & Boerum St,40.70583339,-73.94644578,2156,0.1
677,E 118 St & Madison Ave,40.8014866,-73.9442507,2156,0.1
678,3 Ave & E 100 St,40.7877214,-73.94728331,2151,0.1
679,Clinton St & Union St,40.6831164,-73.99785267,2138,0.1
680,9 St & 44 Rd,40.74966,-73.9521,2131,0.1
681,Myrtle Ave & Marcy Ave,40.69539817,-73.94954908,2128,0.1
682,Lewis Ave & Kosciuszko St,40.69237074,-73.93705428,2115,0.1
683,Riverside Dr & W 145 St,40.827305,-73.951989,2113,0.1
684,Lorimer St & Calyer St,40.72795,-73.95414,2108,0.1
685,Crescent St & 34 Ave,40.76108,-73.930562,2101,0.1
686,6 Ave & 9 St,40.668127,-73.98377641,2094,0.1
687,Wyckoff St & Nevins St,40.683426,-73.984275,2072,0.1
688,4 Ave & 9 St,40.6705135,-73.98876585,2070,0.1
689,12 St & 4 Ave,40.668603,-73.9904394,2065,0.1
690,28 Ave & 44 St,40.76408932,-73.91065121,2060,0.1
691,Adam Clayton Powell Blvd & W 115 St,40.802535,-73.9532423,2054,0.1
692,Richardson St & N Henry St,40.71907891,-73.9422369,2042,0.1
693,Union St & Bedford Ave,40.6691783,-73.9554162,2042,0.1
694,Carlton Ave & Park Ave,40.69580705,-73.97355569,2041,0.1
695,Beaver St & Fayette St,40.70099,-73.93921,2039,0.1
696,Butler St & Court St,40.6849894,-73.99440329,2012,0.1
697,Putnam Ave & Nostrand Ave,40.68402,-73.94977,2001,0.1
698,Smith St & 3 St,40.6787242,-73.99599099,1994,0.1
699,Park Ave & St Edwards St,40.69608941,-73.97803415,1993,0.1
700,Knickerbocker Ave & George St,40.704425,-73.92836,1991,0.1
701,6 Ave & 12 St,40.6663181,-73.9854617,1990,0.1
702,Prospect Pl & Underhill Ave,40.6769694,-73.96579,1982,0.1
703,Van Vorst Park,40.71848892,-74.04772663,1974,0.1
704,31 Ave & Crescent St,40.7658346,-73.9265474,1970,0.1
705,Broadway & Kosciuszko St,40.69329,-73.92852,1959,0.1
706,Prospect Pl & 6 Ave,40.6793307,-73.97519523,1953,0.1
707,24 St & 41 Ave,40.752474,-73.939991,1953,0.1
708,Park Ave & Marcus Garvey Blvd,40.698617,-73.941342,1952,0.1
709,Columbus Drive,40.7183552,-74.03891444,1945,0.1
710,W 116 St & Amsterdam Ave,40.8067581,-73.9607082,1943,0.1
711,Union Ave & Wallabout St,40.70029511,-73.95032283,1935,0.1
712,Tompkins Ave & Hopkins St,40.69957608,-73.94708417,1933,0.1
713,Frost St & Meeker Ave,40.71766197,-73.94880027,1927,0.1
714,Suydam St & Broadway,40.69544,-73.93223,1925,0.1
715,Douglass St & 3 Ave,40.6802133,-73.98432695,1913,0.1
716,38 Ave & 29 St,40.75473,-73.93367,1902,0.1
717,21 St & Queens Plaza North,40.75325964,-73.94335788,1894,0.1
718,Degraw St & Hoyt St,40.68199044,-73.99079025,1879,0.1
719,1 Pl & Clinton St,40.6809591,-73.99905709,1874,0.1
720,Stockholm St & Wilson Ave,40.699304,-73.923044,1865,0.1
721,Nostrand Ave & Myrtle Ave,40.69527008,-73.95238108,1855,0.1
722,40 Ave & 9 St,40.75742,-73.945133,1851,0.1
723,Pulaski St & Marcus Garvey Blvd,40.6933982,-73.939877,1849,0.1
724,W 129 St & Convent Ave,40.81439444,-73.95324737,1846,0.1
725,President St & Henry St,40.6828003,-73.99990419,1845,0.1
726,George St & Wilson Ave,40.702997,-73.92997,1839,0.1
727,31 St & Astoria Blvd,40.7699176,-73.9184057,1839,0.1
728,Central Ave & Starr Street,40.700003,-73.92834,1832,0.1
729,Knickerbocker Ave & Thames St,40.70539,-73.92976,1832,0.1
730,Broadway & Madison St,40.68822,-73.91966,1832,0.1
731,Halsey St & Broadway,40.68565,-73.91564,1821,0.1
732,Bradhurst Ave & W 148 St,40.825125,-73.941616,1818,0.1
733,Clermont Ave & Park Ave,40.69573398,-73.97129668,1818,0.1
734,Humboldt St & Varet St,40.7031724,-73.940636,1814,0.1
735,Van Brunt St & Wolcott St,40.6773429,-74.01275056,1806,0.1
736,Court St & Nelson St,40.6763947,-73.99869893,1798,0.1
737,White St & Moore St,40.704508,-73.9351,1794,0.1
738,10 St & 5 Ave,40.6686273,-73.98700053,1789,0.1
739,LaGuardia Pl & W 3 St [temporarily removed],40.72917025,-73.99810231,1781,0.1
740,Evergreen Ave & Noll St,40.70106,-73.93318,1771,0.1
741,Crescent St & Ditmars Blvd,40.7787185,-73.9145645,1770,0.1
742,Albany Ave & Fulton St,40.6800105,-73.938475,1759,0.1
743,Lexington Ave & E 120 St,40.8013066,-73.9398167,1753,0.1
744,Calyer St & Jewel St,40.72984,-73.94839,1732,0.1
745,34 St & 35 Ave,40.7569332,-73.9262231,1723,0.1
746,5 St & 51 Ave,40.7423737,-73.9566,1719,0.1
747,Wyckoff Av & Jefferson St,40.707165,-73.923711,1705,0.1
748,Jackson St & Leonard St,40.71638032,-73.94821286,1693,0.1
749,Irving Ave & Harman St,40.70108,-73.9179,1691,0.1
750,Lincoln Pl & Classon Ave,40.6721683,-73.9609,1688,0.1
751,E 123 St & Lexington Ave,40.8029263,-73.9379,1686,0.1
752,Broadway & 12 St,40.7668,-73.9347774,1685,0.1
753,Broadway & W 122 St,40.8120562,-73.9612547,1684,0.1
754,31 St & Northern Blvd,40.75186951,-73.9334929,1682,0.1
755,3 Ave & 14 St,40.6685455,-73.99333264,1677,0.1
756,E 118 St & Park Ave,40.8005385,-73.9419949,1672,0.1
757,Lincoln Park,40.7246051,-74.07840595,1664,0.1
758,Wyckoff Av & Stanhope St,40.703545,-73.917775,1662,0.1
759,Manhattan Av & Leonard St,40.72084,-73.94844,1662,0.1
760,Myrtle Ave & Lewis Ave,40.69681963,-73.93756926,1659,0.1
761,7 St & 5 Ave,40.6704922,-73.98541675,1657,0.1
762,Berkeley Pl & 6 Ave,40.6765304,-73.97846879,1649,0.1
763,35 Ave & 37 St,40.7557327,-73.9236611,1640,0.1
764,Wilson Ave & Troutman St,40.70166,-73.92754,1628,0.1
765,Jackson Ave & 46 Rd,40.74524768,-73.94733276,1619,0.1
766,Powers St & Olive St,40.71323,-73.93894,1608,0.1
767,Irving Ave & DeKalb Ave,40.7027,-73.92095,1607,0.1
768,37 Ave & 35 St,40.7531106,-73.9279917,1596,0.05
769,28 St & 36 Ave,40.757186,-73.932719,1566,0.05
770,Jersey & 3rd,40.72333159,-74.04595256,1563,0.05
771,E 128 St & Madison Ave,40.80756,-73.939182,1561,0.05
772,E 149 St & Morris Ave,40.81734,-73.922962,1546,0.05
773,Willoughby Ave & Wyckoff Ave,40.705614,-73.92153,1540,0.05
774,Graham Ave & Herbert St,40.71929301,-73.94500379,1535,0.05
775,Broadway & Hancock St,40.68663,-73.9168,1522,0.05
776,Amsterdam Ave & W 119 St,40.8086249,-73.9596214,1506,0.05
777,Willoughby St & Ashland Pl,40.69178,-73.97877,1492,0.05
778,Bushwick Ave & Linden St,40.69146,-73.92146,1486,0.05
779,Kent St & McGuinness Blvd,40.73124,-73.95161,1485,0.05
780,Pioneer St & Van Brunt St,40.679043,-74.011169,1472,0.05
781,27 Ave & 9 St,40.7739825,-73.9309134,1467,0.05
782,Throop Ave & Myrtle Ave,40.69622937,-73.94371094,1451,0.05
783,Greene Av & Myrtle Av,40.698568,-73.918877,1448,0.05
784,Bushwick Ave & Harman St,40.69356,-73.92524,1448,0.05
785,Adam Clayton Powell Blvd & W 130 St,40.812346,-73.946168,1446,0.05
786,24 Ave & 26 St,40.774591,-73.918544,1441,0.05
787,Morgan Ave & Lombardy St,40.72226,-73.93889,1437,0.05
788,Columbus Ave & W 103 St,40.7969347,-73.96434123,1437,0.05
789,Rockaway Ave & Bainbridge St,40.68319988,-73.91166642,1431,0.05
790,Forest Ave & Summerfield St,40.69922,-73.89795,1423,0.05
791,24 Ave & 29 St,40.7729,-73.916142,1413,0.05
792,Union St & Nevins St,40.679098,-73.98765475,1411,0.05
793,Stuyvesant Walk & 1 Av Loop,40.73233978,-73.97898383,1402,0.05
794,35 Ave & 10 St,40.76315482,-73.9398551,1401,0.05
795,Sigourney St & Columbia St,40.67267243,-74.00879525,1400,0.05
796,Grand St,40.71517768,-74.03768331,1397,0.05
797,Engert Ave & McGuinness Blvd,40.72158,-73.94546,1392,0.05
798,7 St & 3 Ave,40.67260298,-73.98983002,1391,0.05
799,Crescent St & 35 Ave,40.7596276,-73.9321455,1375,0.05
800,3 Ave & Carroll St,40.677027,-73.9865,1370,0.05
801,Manila & 1st,40.72165072,-74.04288411,1362,0.05
802,30 Ave & 21 St,40.7703743,-73.9286078,1361,0.05
803,Dock 72 Way & Market St,40.69985,-73.97141,1346,0.05
804,2 Ave & E 125 St,40.802554,-73.933509,1346,0.05
805,Hoboken Ave at Monmouth St,40.73520838,-74.04696375,1343,0.05
806,Bedford Ave & Montgomery St,40.665816,-73.956934,1340,0.05
807,5 St & 6 Ave,40.6704836,-73.98208968,1331,0.05
808,W 133 St & 12 Ave,40.820003,-73.959089,1326,0.05
809,Bushwick Ave & Forrest St,40.70076,-73.93641,1296,0.05
810,Central Ave & Melrose St,40.70112,-73.93039,1280,0.05
811,Dwight St & Van Dyke St,40.67363551,-74.01195556,1276,0.05
812,Bushwick Ave & Dekalb Ave,40.69502,-73.92825,1276,0.05
813,21 St & 36 Ave,40.7601853,-73.9362726,1268,0.05
814,Van Sinderen Ave & Truxton St,40.6786,-73.90369,1267,0.05
815,Cedar St & Myrtle Ave,40.697842,-73.926241,1263,0.05
816,Lorimer St & Broadway,40.70411791,-73.94818595,1256,0.05
817,Grand Concourse & E 144 St,40.816576,-73.927987,1241,0.05
818,Riverside Dr & W 138 St,40.823168,-73.955857,1240,0.05
819,Devoe St & Morgan Ave,40.713811,-73.93515,1231,0.05
820,N 15 St & Wythe Ave,40.724055,-73.955736,1231,0.05
821,Van Buren St & Broadway,40.692,-73.92617,1223,0.05
822,31 Ave & 14 St,40.7682,-73.9322662,1218,0.05
823,Waterbury St & Stagg St,40.71019,-73.93734,1205,0.05
824,W Broadway & Spring St [temporarily removed],40.72494672,-74.00165856,1195,0.05
825,Marcus Garvey Blvd & Macon St,40.682601,-73.938037,1193,0.05
826,40 Ave & Crescent St,40.7535992,-73.93795609,1193,0.05
827,Baldwin at Montgomery,40.7236589,-74.0641943,1187,0.05
828,Carroll St & Franklin Ave,40.6679411,-73.9588,1181,0.05
829,E 132 St & Madison Ave,40.810224,-73.937195,1176,0.05
830,E 138 St & 5 Av,40.81449,-73.936153,1173,0.05
831,Montgomery St,40.71942,-74.05099,1171,0.05
832,Brunswick & 6th,40.72601173,-74.05038893,1169,0.05
833,Jersey & 6th St,40.72528911,-74.04557168,1158,0.05
834,Central Ave & Himrod St,40.69676,-73.92302,1151,0.05
835,Lexington Ave & E 127 St,40.805726,-73.936322,1147,0.05
836,Sullivan Pl & Bedford Ave,40.6642406,-73.9574686,1140,0.05
837,23 Ave & 27 St,40.776165,-73.9153175,1140,0.05
838,11 St & 43 Ave,40.7519071,-73.9479119,1139,0.05
839,3 St & Hoyt St,40.6777287,-73.99364123,1138,0.05
840,49 Ave & 21 St,40.74252,-73.948852,1135,0.05
841,Brunswick St,40.7241765,-74.0506564,1124,0.05
842,McGinley Square,40.72533993,-74.06762213,1122,0.05
843,Myrtle Ave & Linden St,40.69943,-73.91337,1109,0.05
844,Irving Ave & Halsey St,40.69467,-73.90663,1106,0.05
845,31 St & Hoyt Ave N,40.7711528,-73.9170074,1093,0.05
846,34 Ave & 13 St,40.7638753,-73.9364848,1086,0.05
847,37 St & 24 Ave,40.7701477,-73.9120938,1085,0.05
848,Irving Ave & Palmetto St,40.698,-73.9127,1080,0.05
849,Central Ave & Weirfield St,40.69055,-73.91181,1073,0.05
850,Dixon Mills,40.72163014,-74.04996783,1069,0.05
851,Putnam Ave & Wyckoff Ave,40.69811,-73.90904,1061,0.05
852,Essex Light Rail,40.7127742,-74.0364857,1059,0.05
853,48 Ave & 30 Pl,40.74128309,-73.93725872,1058,0.05
854,Hoyt St & Warren St,40.6843549,-73.98901629,1049,0.05
855,Willoughby Ave & Myrtle Ave,40.69757,-73.93098,1037,0.05
856,Central Ave & Flushing Ave,40.702831,-73.9333,1034,0.05
857,Jefferson St & Cypress Ave,40.70907,-73.92157,1033,0.05
858,Amsterdam Ave & W 136 St,40.819746,-73.951819,1030,0.05
859,Carroll St & Washington Ave,40.6686744,-73.9618148,1018,0.05
860,Norman St & Wyckoff Ave,40.69517,-73.90311,1009,0.05
861,Lenox Ave & W 144 St,40.819783,-73.936521,1006,0.05
862,Lexington Ave & E 26 St [temporarily removed],40.741459,-73.983293,1001,0.05
863,Willow Ave & E 133 St,40.800933,-73.913863,1001,0.05
864,Bergen Ave,40.72210379,-74.071455,996,0.05
865,Columbia St & W 9 St,40.6769993,-74.00647134,982,0.05
866,Division Ave & Marcy Ave,40.70708701,-73.95796783,981,0.05
867,27 Ave & 3 St,40.77485,-73.9342,980,0.05
868,Monmouth and 6th,40.72568548,-74.04879034,975,0.05
869,Flushing Ave & Woodward Ave,40.71246,-73.91873,968,0.05
870,Madison St & Forest Ave,40.70555,-73.90245,966,0.05
871,Central Ave & Woodbine St,40.69296,-73.91605,965,0.05
872,Adam Clayton Powell Blvd & W 141 St,40.819241,-73.941057,965,0.05
873,34 Ave & 21 St,40.7628138,-73.9342862,957,0.05
874,Withers St & Kingsland Ave,40.71773,-73.94051,952,0.05
875,Stagg St & Morgan Ave,40.710681,-73.93372,942,0.05
876,Morgan Ave & Maspeth Ave,40.716657,-73.93637,939,0.05
877,5 Ave & W 131 St,40.81014,-73.93973,931,0.05
878,Pacific St & Classon Ave,40.6791944,-73.9587903,930,0.05
879,Heights Elevator,40.74871595,-74.0404433,929,0.05
880,10 St & 2 Ave,40.671907,-73.993612,925,0.05
881,21 St & 43 Ave,40.75052534,-73.94594845,918,0.05
882,5 Ave & E 135 St,40.812191,-73.937838,917,0.05
883,Commerce St & Van Brunt St,40.6812117,-74.00860912,912,0.05
884,Amsterdam Ave & W 131 St,40.816355,-73.954295,912,0.05
885,Pershing Field,40.74267714,-74.05178863,910,0.05
886,Knickerbocker Ave & Halsey St,40.693,-73.90824,907,0.05
887,Astor Place,40.7192822,-74.07126188,905,0.05
888,W 146 St & Broadway,40.826969,-73.949738,891,0.05
889,York St,40.71649,-74.04105,890,0.05
890,Morningside Dr & Amsterdam Ave,40.81028506,-73.95736456,882,0.05
891,Bushwick Ave & McKibbin St,40.705517,-73.93936,879,0.05
892,Pioneer St & Richards St,40.6777748,-74.0094613,863,0.05
893,Bushwick Ave & Stagg St,40.709897,-73.94008,851,0.05
894,Green St & McGuinness Blvd,40.73396,-73.95204,847,0.05
895,Knickerbocker Ave & Hancock St,40.69385,-73.90974,843,0.05
896,Montgomery St & Franklin Ave,40.66643931,-73.96055639,838,0.05
897,Jefferson Ave & Evergreen Ave,40.68989,-73.91458,838,0.05
898,Putnam Ave & Knickerbocker Ave,40.69545,-73.91164,831,0.05
899,Morris Ave & E 153 St,40.820036,-73.921411,826,0.05
900,Willis Ave & Bruckner Blvd,40.805701,-73.925177,822,0.05
901,Lafayette Park,40.71346383,-74.06285852,814,0.05
902,Madison St & Cypress Ave,40.70068,-73.90742,808,0.05
903,Myrtle Ave & Grove St,40.69905,-73.91516,797,0.05
904,Clinton St & Centre St,40.67434,-74.00194698,796,0.05
905,Hilltop,40.7311689,-74.0575736,783,0.05
906,Richards St & Delavan St,40.6794327,-74.00785041,782,0.05
907,Madison St & Woodward Ave,40.70408,-73.90408,775,0.05
908,Onderdonk Ave & Gates Ave,40.70413,-73.90737,773,0.05
909,St Nicholas Ave & E 134 St,40.816234,-73.948222,771,0.05
910,W 145 St & Amsterdam Ave,40.825244,-73.947257,758,0.05
911,Willoughby Ave & Myrtle Ave [temporarily removed],40.69757,-73.93098,758,0.05
912,Menahan St & Central Ave,40.69543,-73.9196,755,0.05
913,Henry St & Bay St,40.6725058,-74.00494695,749,0.05
914,Lincoln Ave & E 138 St,40.810893,-73.927311,740,0.05
915,Willis Ave & E 137 St,40.808384,-73.923604,738,0.05
916,Eldert St & Bushwick Ave,40.68652,-73.91321,734,0.05
917,Knickerbocker Ave & Cooper St,40.69081,-73.90448,731,0.05
918,Greene Ave & Grandview Ave,40.709697,-73.907856,730,0.05
919,Lexington Ave & E 29 St [temporarily removed],40.74311555,-73.98215353,729,0.05
920,Madison St & Seneca Ave,40.70183,-73.90625,728,0.05
921,Fairmount Ave,40.72572614,-74.07195926,726,0.05
922,Harman St & Seneca Ave,40.70577,-73.91292,722,0.05
923,Menahan St & Wyckoff Ave,40.70113,-73.91422,715,0.05
924,Central Ave & Covert St,40.68929,-73.90951,713,0.05
925,Menahan St & Seneca Ave,40.70461,-73.91054,712,0.05
926,Hart St & Wyckoff Ave,40.704876,-73.919911,711,0.05
927,Greenpoint Ave & Manhattan Ave [temporarily removed],40.73026,-73.95394,704,0.05
928,Broadway & Furman Ave,40.68139,-73.90756,696,0.05
929,Stanhope St & Fairview Ave,40.70998,-73.91116,688,0.05
930,Cedar St & Evergreen Ave,40.69671,-73.92807,688,0.05
931,21 St & 38 Ave,40.7576314,-73.9391224,661,0.05
932,Harrison Pl & Porter Ave,40.70686,-73.92851,661,0.05
933,Halsey St & Evergreen Ave,40.68858,-73.91227,654,0.05
934,Central Ave & Decatur St,40.6882,-73.90798,653,0.05
935,Cypress Ave & Palmetto St,40.70157341,-73.90876293,643,0.05
936,Lexington Ave & E 128 St,40.806414,-73.936085,641,0.05
937,Moffat St & Bushwick,40.68458,-73.90925,622,0.05
938,W 144 St & Adam Clayton Powell Blvd,40.820877,-73.939249,613,0.05
939,Communipaw & Berry Lane,40.71435837,-74.06661093,609,0.05
940,5 Av & W 139 St,40.815484,-73.935856,608,0.05
941,Linden St & Knickerbocker Ave,40.69714,-73.91566,607,0.05
942,Willis Ave & E 141 St,40.81093,-73.921606,597,0.05
943,Columbia St & Lorraine St,40.6747055,-74.0075572,592,0.05
944,Union St,40.7182113,-74.0836394,578,0.05
945,Wilson Ave & Moffat St,40.68906,-73.90506,577,0.05
946,W 31 St & 7 Ave [temporarily removed],40.749156,-73.9916,577,0.05
947,E 149 St & Jackson Ave,40.813135,-73.909235,567,0.05
948,Henry St & W 9 St,40.6763744,-74.00324957,565,0.05
949,Centre St & Seneca Ave,40.69969,-73.9022,562,0.05
950,Suydam St & St. Nicholas Ave,40.70636,-73.91945,561,0.05
951,Melrose Ave & E 150 St,40.816827,-73.917338,557,0.05
952,Motorgate,40.7639089,-73.9477213,553,0.05
953,Journal Square,40.73367,-74.0625,548,0.05
954,Riverview Park,40.7443187,-74.0439909,543,0.05
955,Wolcott St & Dwight St,40.6753274,-74.0100698,527,0.05
956,Bushwick Ave & Furman Ave,40.68281,-73.90623,516,0.05
957,Glenwood Ave,40.72755147,-74.07106072,512,0.05
958,Old Slip & Front St,40.7037992,-74.00838676,507,0.05
959,Lincoln Ave & E 134 St,40.808484,-73.928803,494,0.05
960,Onderdonk Ave & Dekalb Ave,40.70863,-73.91497,493,0.05
961,Lenox Ave & W 133 St,40.81296,-73.941878,487,0.05
962,Metropolitan Ave & Stewart Ave,40.71401,-73.92793,487,0.05
963,47 Ave & Skillman Ave,40.74375241,-73.94176483,483,0.05
964,Willoughby Ave & Onderdonk Ave,40.7098,-73.91727,473,0.05
965,Convent Ave & W 135 St,40.818215,-73.950988,471,0.05
966,Edgecombe Ave & W 141 St,40.820681,-73.945144,459,0.05
967,Woodward Ave & Harman St,40.70793,-73.91092,457,0.05
968,Roosevelt Island Tramway,40.757284,-73.9536,453,0.05
969,Stewart Ave & Johnson Ave,40.70869,-73.92587,437,0.05
970,Madison St & Evergreen Ave,40.69122,-73.91693,432,0.05
971,Fairview Ave & Linden St,40.70694,-73.90632,425,0.05
972,White St & Johnson Ave,40.707174,-73.93581,423,0.05
973,Jackson Square,40.71113,-74.0789,422,0.05
974,Dey St,40.737711,-74.066921,412,0.05
975,Somers St & Broadway,40.67945,-73.90474,410,0.05
976,Adam Clayton Powell Blvd & W 132 St,40.813539,-73.94521,404,0.05
977,Christ Hospital,40.73478582,-74.05044364,403,0.05
978,Oakland Ave,40.7376037,-74.0524783,396,0.05
979,11 St & 35 Ave,40.7627442,-73.9391141,389,0.05
980,Hancock St & Wyckoff Ave,40.6972,-73.90674,384,0.05
981,Marcus Garvey Blvd & Macon St    [temporarily removed],40.682601,-73.938037,378,0.05
982,Menahan St & Onderdonk Ave,40.70553,-73.9096,376,0.05
983,Cypress Ave & George St,40.69812,-73.90271,370,0.05
984,Frost St & Debevoise Ave,40.71882,-73.93948,348,0.05
985,5 Corners Library,40.73496102,-74.05950308,347,0.05
986,Stephen St & Seneca Ave,40.6988,-73.9007,338,0.05
987,Metropolitan Ave & Vandervoort Ave,40.71429,-73.93323,332,0.05
988,St Mary's St & Jackson Ave,40.808891,-73.91081,309,0.05
989,Morris Ave & E 142 St,40.814469,-73.924963,298,0.05
990,Leonard Gordon Park,40.74590997,-74.05727148,287,0.05
991,E 149 St & Eagle Ave,40.814046,-73.91186,260,0.05
992,St. Ann's Ave & E 144 St,40.811112,-73.914932,249,0.05
993,Railroad Ave & Kay Ave,40.70531194,-73.97100056,234,0.05
994,E 128 St & 3 Ave,40.805631,-73.934077,232,0.05
995,E 135 St & St Ann's Ave,40.805089,-73.918889,216,0.05
996,Southpoint Park,40.75370225,-73.95865202,204,0.05
997,St. Ann's Av & Bruckner Blvd,40.803399,-73.919763,176,0.05
998,Willis Ave & E 143 St,40.812299,-73.92037,168,0.05
999,E 138 St & Willow Ave,40.804168,-73.911545,162,0.05
1000,Brook Ave & E 141 St,40.809619,-73.917875,157,0.05
1001,E 144 St & Brook Ave,40.811675,-73.917037,157,0.05
1002,E 138 St & Grand Concourse,40.813224,-73.930605,154,0.05
1003,Edgecombe Ave & W 145 St,40.823498,-73.94386,131,0.05
1004,W 148 St & Amsterdam Ave,40.827075,-73.945909,120,0.05
1005,E 134 St & Walnut Ave,40.800425,-73.911034,118,0.05
1006,Brook Ave & E 138 St,40.807408,-73.91924,118,0.05
1007,E 133 St & Cypress Pl,40.80262,-73.9174,95,0.05
1008,E 142 St & 3 Ave,40.812735,-73.923697,89,0.05
1009,E 147 St & Bergen Ave,40.814673,-73.91839,81,0.05
1010,E 138 St & Cypress Ave,40.805559,-73.914718,74,0.05
1011,Hamilton Pl & W 140 St,40.822756,-73.951346,68,0.05
1012,E 141 St & St Ann's Ave,40.808633,-73.916124,60,0.05
1013,Wyckoff St & Bond St,40.68461654,-73.98721285,58,0.05
1014,Propsect Ave & E 151 St,40.814232,-73.903927,58,0.05
1015,E 138 St & Canal St W,40.812304,-73.929153,51,0.05
1016,St. Nicholas Terrace & Convent Ave,40.821294,-73.947868,49,0.05
1017,Southern Blvd & E 142 St,40.807258,-73.907999,38,0.05
1018,Westchester Ave & Jackson Ave,40.816124,-73.908116,38,0.05
1019,E 141 St & Jackson Ave,40.806896,-73.911837,32,0.05
1020,Walnut Ave & E 136 St,40.801657,-73.909513,30,0.05
1021,Wales Ave & E 147 St,40.811314,-73.907729,15,0.05
1022,NYCBS DEPOT - DELANCEY,40.71644423,-73.98233056,8,0.05
1023,W 26 St & 8 Ave,40.746,-73.998,4,0.05
1024,12 Ave & W 40 St,40.761,-74.004,3,0.05
1025,E 25 St & 1 Ave,40.737,-73.977,3,0.05
1026,5 Ave & E 73 St,40.773,-73.968,3,0.05
1027,E 110 St & Madison Ave,40.797,-73.947,3,0.05
1028,E 85 St & 3 Ave,40.779,-73.953,3,0.05
1029,E 58 St & 3 Ave,40.761,-73.968,3,0.05
1030,Greenwich Ave & 8 Ave,40.74,-74.004,3,0.05
1031,St. Ann's Ave & E 144 St,40.812,-73.914,3,0.05
1032,Riverside Dr & W 78 St,40.785,-73.983,2,0.05
1033,5 Ave & E 78 St,40.776,-73.965,2,0.05
1034,Clinton St & Joralemon St,40.692,-73.992,2,0.05
1035,E 2 St & Avenue A,40.722,-73.986,2,0.05
1036,E 2 St & Avenue C,40.722,-73.98,2,0.05
1037,5 Ave & E 103 St,40.791,-73.953,2,0.05
1038,Willoughby Ave & Onderdonk Ave,40.71,-73.917,2,0.05
1039,Broadway & W 60 St,40.77,-73.983,2,0.05
1040,Emerson Pl & Myrtle Ave,40.695,-73.962,2,0.05
1041,Jackson St & Leonard St,40.716,-73.947,2,0.05
1042,E 23 St & 1 Ave,40.737,-73.977,2,0.05
1043,Christopher St & Greenwich St,40.734,-74.007,2,0.05
1044,E 91 St & 2 Ave,40.782,-73.95,2,0.05
1045,E 47 St & 1 Ave,40.752,-73.968,2,0.05
1046,Central Park S & 6 Ave,40.767,-73.977,2,0.05
1047,Jefferson St & Cypress Ave,40.71,-73.923,2,0.05
1048,Pershing Square North,40.752,-73.977,2,0.05
1049,E 33 St & 1 Ave,40.743,-73.974,2,0.05
1050,Frederick Douglass Blvd & W 112 St,40.803,-73.956,2,0.05
1051,3 St & Prospect Park West,40.668,-73.974,2,0.05
1052,E 142 St & 3 Ave,40.812,-73.923,2,0.05
1053,8 Ave & W 52 St,40.764,-73.986,2,0.05
1054,W 41 St & 8 Ave,40.755,-73.989,2,0.05
1055,Berry St & N 8 St,40.719,-73.959,2,0.05
1056,8 Ave & W 31 St,40.752,-73.995,2,0.05
1057,W 22 St & 8 Ave,40.746,-73.998,2,0.05
1058,Grand St & Elizabeth St,40.719,-73.995,2,0.05
1059,W 4 St & 7 Ave S,40.734,-74.004,2,0.05
1060,E 10 St & Avenue A,40.728,-73.98,2,0.05
1061,W 37 St & 10 Ave,40.758,-73.998,2,0.05
1062,Norfolk St & Broome St,40.716,-73.989,2,0.05
1063,W 21 St & 6 Ave,40.743,-73.995,2,0.05
1064,S Portland Ave & Hanson Pl,40.686,-73.974,1,0.05
1065,E 43 St & 5 Ave,40.755,-73.98,1,0.05
1066,Lexington Ave & E 120 St,40.8,-73.941,1,0.05
1067,Court St & State St,40.689,-73.992,1,0.05
1068,E 116 St & 2 Ave,40.797,-73.938,1,0.05
1069,1 Ave & E 78 St,40.77,-73.953,1,0.05
1070,E 45 St & 3 Ave,40.752,-73.974,1,0.05
1071,Leonard St & Church St,40.719,-74.007,1,0.05
1072,S 4 St & Wythe Ave,40.713,-73.965,1,0.05
1073,E 32 St & Park Ave,40.746,-73.983,1,0.05
1074,1 Ave & E 68 St,40.764,-73.959,1,0.05
1075,Columbus Ave & W 95 St,40.791,-73.968,1,0.05
1076,E 47 St & Park Ave,40.755,-73.974,1,0.05
1077,Columbus Ave & W 72 St,40.776,-73.98,1,0.05
1078,Columbia St & Kane St,40.689,-74.001,1,0.05
1079,Rockaway Ave & Bainbridge St,40.683,-73.911,1,0.05
1080,E 128 St & Madison Ave,40.809,-73.938,1,0.05
1081,E 48 St & 5 Ave,40.758,-73.977,1,0.05
1082,Wyckoff Av & Stanhope St,40.704,-73.917,1,0.05
1083,Lefferts Pl & Franklin Ave,40.68,-73.956,1,0.05
1084,Madison St & Woodward Ave,40.704,-73.905,1,0.05
1085,E 13 St & Avenue A,40.731,-73.98,1,0.05
1086,Riverside Blvd & W 67 St,40.779,-73.989,1,0.05
1087,1 Ave & E 94 St,40.782,-73.947,1,0.05
1088,E 10 St & 5 Ave,40.734,-73.995,1,0.05
1089,E 30 St & Park Ave S,40.743,-73.983,1,0.05
1090,St Marks Pl & 2 Ave,40.728,-73.986,1,0.05
1091,12 St & 4 Ave,40.668,-73.989,1,0.05
1092,Sterling Pl & Bedford Ave,40.674,-73.953,1,0.05
1093,14 St & 5 Ave,40.665,-73.989,1,0.05
1094,Little West St & 1 Pl,40.707,-74.016,1,0.05
1095,McKibbin St & Bogart St,40.707,-73.935,1,0.05
1096,Milton St & Franklin St,40.728,-73.959,1,0.05
1097,E 15 St & 3 Ave,40.734,-73.986,1,0.05
1098,E 103 St & Lexington Ave,40.791,-73.947,1,0.05
1099,E 16 St & Irving Pl,40.734,-73.989,1,0.05
1100,2 Ave & 36 St,40.656,-74.01,1,0.05
1101,11 Ave & W 59 St,40.77,-73.989,1,0.05
1102,E 2 St & Avenue B,40.722,-73.983,1,0.05
1103,E 25 St & 2 Ave,40.74,-73.98,1,0.05
1104,St Johns Pl & Washington Ave,40.674,-73.962,1,0.05
1105,11 Ave & W 41 St,40.761,-73.998,1,0.05
1106,E 149 St & Eagle Ave,40.815,-73.911,1,0.05
1107,11 Ave & W 27 St,40.752,-74.004,1,0.05
1108,St James Pl & Pearl St,40.71,-74.001,1,0.05
1109,St James Pl & Oliver St,40.713,-73.998,1,0.05
1110,E 106 St & Madison Ave,40.794,-73.95,1,0.05
1111,Southern Blvd & E 142 St,40.806,-73.908,1,0.05
1112,Lexington Ave & E 29 St,40.743,-73.983,1,0.05
1113,MTL-AOS-5.1,40.7903,-73.9597,1,0.05
1114,South St & Whitehall St,40.701,-74.013,1,0.05
1115,Astoria Park S & Shore Blvd,40.776,-73.929,1,0.05
1116,E 76 St & Park Ave,40.773,-73.962,1,0.05
1117,E 58 St &  1 Ave (NW Corner),40.758,-73.962,1,0.05
1118,6 Ave & Broome St,40.725,-74.004,1,0.05
1119,Harrison St & Hudson St,40.719,-74.01,1,0.05
1120,W 20 St & 7 Ave,40.743,-73.998,1,0.05
1121,7 Ave & Central Park South,40.767,-73.98,1,0.05
1122,Washington Pl & Broadway,40.728,-73.995,1,0.05
1123,Fulton St & Broadway,40.71,-74.01,1,0.05
1124,Broad St & Bridge St,40.704,-74.013,1,0.05
1125,W 20 St & 11 Ave,40.746,-74.007,1,0.05
1126,W 17 St & 8 Ave,40.743,-74.001,1,0.05
1127,University Pl & E 14 St,40.734,-73.992,1,0.05
1128,W 15 St & 10 Ave,40.743,-74.007,1,0.05
1129,Frederick Douglass Blvd & W 115 St,40.803,-73.956,1,0.05
1130,Howard St & Centre St,40.719,-74.001,1,0.05
1131,Broadway & Moylan Pl,40.815,-73.959,1,0.05
1132,Franklin St & W Broadway,40.719,-74.007,1,0.05
1133,West St & Chambers St,40.719,-74.013,1,0.05
1134,5 Ave & E 88 St,40.782,-73.959,1,0.05
1135,W 26 St & 10 Ave,40.749,-74.004,1,0.05
1136,9 Ave & W 28 St,40.749,-73.998,1,0.05
1137,Halsey St & Tompkins Ave,40.683,-73.944,1,0.05
1138,Bayard St & Leonard St,40.719,-73.95,1,0.05
1139,W 67 St & Broadway,40.776,-73.983,1,0.05
1140,Greenpoint Ave & Manhattan Ave,40.731,-73.953,1,0.05
1141,Amsterdam Ave & W 79 St,40.782,-73.98,1,0.05
1142,W 90 St & Amsterdam Ave,40.791,-73.974,1,0.05
1143,W 53 St & 10 Ave,40.767,-73.992,1,0.05
1144,W 52 St & 11 Ave,40.767,-73.995,1,0.05
1145,W 50 St & 9 Ave,40.764,-73.989,1,0.05
1146,W 43 St & 10 Ave,40.761,-73.995,1,0.05
1147,Baltic St & 5 Ave,40.68,-73.98,1,0.05
1148,W 95 St & Broadway,40.794,-73.971,1,0.05
1149,Greenwich St & W Houston St,40.728,-74.01,1,0.05
1150,W 40 St & 5 Ave,40.752,-73.983,1,0.05
1151,Bank St & Washington St,40.737,-74.01,1,0.05
1152,Halsey St & Broadway,40.686,-73.917,1,0.05
1153,Adam Clayton Powell Blvd & W 126 St,40.809,-73.947,1,0.05
1154,Franklin St & Dupont St,40.737,-73.959,1,0.05
1155,5 Ave & E 63 St,40.767,-73.971,1,0.05
1156,Forsyth St & Canal St,40.716,-73.995,1,0.05
1157,Vernon Blvd & 50 Ave,40.743,-73.953,1,0.05
1158,35 St & 34 Ave,40.758,-73.923,1,0.05
1159,Central Park West & W 100 St,40.794,-73.962,1,0.05
1160,W 63 St & Broadway,40.773,-73.983,1,0.05
1161,Vernon Blvd & 31 Ave,40.77,-73.935,1,0.05
1162,E 72 St & Park Ave,40.77,-73.965,1,0.05
1163,Central Park West & W 85 St,40.785,-73.971,1,0.05
1164,Kent Ave & S 11 St,40.707,-73.968,1,0.05
1165,Monroe St & Bedford Ave,40.686,-73.953,1,0.05
1166,E 7 St & Avenue A,40.725,-73.983,1,0.05
1167,Cherry St,40.713,-73.98,1,0.05
1168,E 60 St & York Ave,40.758,-73.959,1,0.05
1169,E 6 St & Avenue D,40.722,-73.977,1,0.05
1170,LaGuardia Pl & W 3 St,40.728,-73.998,1,0.05
1171,Queens Plaza North & Crescent St,40.752,-73.941,1,0.05
1172,Cleveland Pl & Spring St,40.722,-73.998,1,0.05
1173,Pike St & Monroe St,40.713,-73.992,1,0.05
1174,E 84 St & 1 Ave,40.776,-73.95,1,0.05
1175,Broadway & W 49 St,40.761,-73.986,1,0.05
1176,W 100 St & Broadway,40.797,-73.971,1,0.05
1177,Broadway & W 56 St,40.764,-73.983,1,0.05
1178,Hudson St & Reade St,40.716,-74.01,1,0.05
1179,Forest Ave & Summerfield St,40.698,-73.899,1,0.05
1180,Montrose Ave & Bushwick Ave,40.707,-73.941,1,0.05
1181,Flushing Ave & Woodward Ave,40.713,-73.92,1,0.05
1182,W 113 St & Broadway,40.806,-73.965,1,0.05
1183,India St & West St,40.731,-73.959,1,0.05
1184,Willis Ave & E 137 St,40.809,-73.923,1,0.05
1185,E 89 St & 3 Ave,40.782,-73.953,1,0.05
1186,E 88 St & 1 Ave,40.779,-73.95,1,0.05
1187,Park Pl & Vanderbilt Ave,40.677,-73.968,1,0.05
1188,40 Ave & 9 St,40.758,-73.944,1,0.05
1189,E 84 St & Park Ave,40.779,-73.959,1,0.05
1190,Catherine St & Monroe St,40.71,-73.998,1,0.05
1191,W 100 St & Manhattan Ave,40.794,-73.965,1,0.05
1192,Myrtle Ave & St Edwards St,40.692,-73.977,1,0.05
